[  
   {  
      "name":"SACCO",
      "lat":45.4646,
      "lng":9.15280000000007
   },
   {  
      "name":"COMASINA",
      "lat":45.5264,
      "lng":9.159899999999993
   },
   {  
      "name":"STEPHENSON",
      "lat":45.512744072697494,
      "lng":9.114172091008415
   },
   {  
      "name":"QT 8",
      "lat":45.48603000000003,
      "lng":9.138410000000022
   },
   {  
      "name":"ORTOMERCATO",
      "lat":45.46509000000003,
      "lng":9.183900000000051
   },
   {  
      "name":"MAGGIORE - MUSOCCO",
      "lat":45.50415000000004,
      "lng":9.12146000000007
   },
   {  
      "name":"PARCO LAMBRO - CIMIANO",
      "lat":45.50070000000005,
      "lng":9.247540000000072
   },
   {  
      "name":"GALLARATESE",
      "lat":45.496710000000064,
      "lng":9.114840000000072
   },
   {  
      "name":"S. SIRO",
      "lat":45.48801350349509,
      "lng":9.068805197988418
   },
   {  
      "name":"GHISOLFA",
      "lat":45.49631000000005,
      "lng":9.169400000000053
   },
   {  
      "name":"BAGGIO",
      "lat":45.46324000000004,
      "lng":9.092700000000036
   },
   {  
      "name":"QUARTO CAGNINO",
      "lat":45.46867000000003,
      "lng":9.111430000000041
   },
   {  
      "name":"LORENTEGGIO",
      "lat":45.443610000000035,
      "lng":9.123010000000022
   },
   {  
      "name":"GIAMBELLINO",
      "lat":45.44831000000005,
      "lng":9.142860000000042
   },
   {  
      "name":"S. CRISTOFORO",
      "lat":45.45,
      "lng":9.155399999999986
   },
   {  
      "name":"RONCHETTO SUL NAVIGLIO",
      "lat":45.438090000000045,
      "lng":9.128310000000056
   },
   {  
      "name":"TIBALDI",
      "lat":45.44391759055627,
      "lng":9.18210230185423
   },
   {  
      "name":"CASCINA TRIULZA - EXPO",
      "lat":45.5202,
      "lng":9.102700000000027
   },
   {  
      "name":"QUARTO OGGIARO",
      "lat":45.51674000000003,
      "lng":9.140900000000045
   },
   {  
      "name":"AFFORI",
      "lat":45.51410000000004,
      "lng":9.173530000000028
   },
   {  
      "name":"PADOVA",
      "lat":45.5016,
      "lng":9.234199999999987
   },
   {  
      "name":"EX OM - MORIVIONE",
      "lat":45.440990000000056,
      "lng":9.18781000000007
   },
   {  
      "name":"ADRIANO",
      "lat":45.5097,
      "lng":9.24739999999997
   },
   {  
      "name":"FARINI",
      "lat":45.4833,
      "lng":9.181600000000003
   },
   {  
      "name":"UMBRIA - MOLISE",
      "lat":45.4522,
      "lng":9.218799999999987
   },
   {  
      "name":"TRIULZO SUPERIORE",
      "lat":45.43032000000005,
      "lng":9.258580000000052
   },
   {  
      "name":"CORSICA",
      "lat":45.465550000000064,
      "lng":9.225150000000042
   },
   {  
      "name":"CITTA' STUDI",
      "lat":45.47708000000006,
      "lng":9.226600000000076
   },
   {  
      "name":"SELINUNTE",
      "lat":45.47161569621992,
      "lng":9.137191922422723
   },
   {  
      "name":"PARCO MONLUE' - PONTE LAMBRO",
      "lat":45.45234000000005,
      "lng":9.253770000000031
   },
   {  
      "name":"NIGUARDA - CA' GRANDA",
      "lat":45.513280000000066,
      "lng":9.184510000000046
   },
   {  
      "name":"STADERA",
      "lat":45.433110000000056,
      "lng":9.180500000000052
   },
   {  
      "name":"GUASTALLA",
      "lat":45.461130000000026,
      "lng":9.198500000000024
   },
   {  
      "name":"BRERA",
      "lat":45.471490000000074,
      "lng":9.187730000000045
   },
   {  
      "name":"DUOMO",
      "lat":45.464710000000025,
      "lng":9.193480000000022
   },
   {  
      "name":"SCALO ROMANA",
      "lat":45.439,
      "lng":9.209100000000035
   },
   {  
      "name":"MAGENTA - S. VITTORE",
      "lat":45.463009500000005,
      "lng":9.170651249999997
   },
   {  
      "name":"BOVISASCA",
      "lat":45.515550000000076,
      "lng":9.150940000000048
   },
   {  
      "name":"LODI - CORVETTO",
      "lat":45.43988000000007,
      "lng":9.224770000000035
   },
   {  
      "name":"LAMBRATE",
      "lat":45.48157000000003,
      "lng":9.251720000000034
   },
   {  
      "name":"BARONA",
      "lat":45.433710000000076,
      "lng":9.15160000000003
   },
   {  
      "name":"BRUZZANO",
      "lat":45.52825000000007,
      "lng":9.180710000000033
   },
   {  
      "name":"TRENNO",
      "lat":45.49225000000007,
      "lng":9.105180000000075
   },
   {  
      "name":"GRATOSOGLIO - TICINELLO",
      "lat":45.41459000000003,
      "lng":9.171220000000062
   },
   {  
      "name":"FIGINO",
      "lat":45.49234000000007,
      "lng":9.078520000000026
   },
   {  
      "name":"QUINTO ROMANO",
      "lat":45.47684000000004,
      "lng":9.088840000000062
   },
   {  
      "name":"PARCO AGRICOLO SUD",
      "lat":45.4494,
      "lng":9.061540000000036
   },
   {  
      "name":"VILLAPIZZONE",
      "lat":45.49834000000004,
      "lng":9.144530000000032
   },
   {  
      "name":"BOVISA",
      "lat":45.503130000000056,
      "lng":9.161220000000071
   },
   {  
      "name":"DERGANO",
      "lat":45.504110000000026,
      "lng":9.176470000000052
   },
   {  
      "name":"PARCO NORD",
      "lat":45.52486000000005,
      "lng":9.180880000000059
   },
   {  
      "name":"BICOCCA",
      "lat":45.52149000000003,
      "lng":9.213260000000048
   },
   {  
      "name":"MUGGIANO",
      "lat":45.44832000000008,
      "lng":9.064020000000028
   },
   {  
      "name":"PORTELLO",
      "lat":45.48023003664375,
      "lng":9.149849945034447
   },
   {  
      "name":"TRE TORRI",
      "lat":45.47825000000006,
      "lng":9.153490000000033
   },
   {  
      "name":"PARCO SEMPIONE",
      "lat":45.475100000000054,
      "lng":9.173230000000046
   },
   {  
      "name":"GIARDINI PORTA VENEZIA",
      "lat":45.47614614938066,
      "lng":9.201045674864046
   },
   {  
      "name":"TORTONA",
      "lat":45.452570043857165,
      "lng":9.165359981678202
   },
   {  
      "name":"NAVIGLI",
      "lat":45.45017595,
      "lng":9.17089686
   },
   {  
      "name":"XXII MARZO",
      "lat":45.46269006939234,
      "lng":9.21171000000004
   },
   {  
      "name":"BUENOS AIRES - VENEZIA",
      "lat":45.477,
      "lng":9.214400000000069
   },
   {  
      "name":"QUINTOSOLE",
      "lat":45.40213000000006,
      "lng":9.204620000000034
   },
   {  
      "name":"RONCHETTO DELLE RANE",
      "lat":45.40184000000005,
      "lng":9.17882000000003
   },
   {  
      "name":"CHIARAVALLE",
      "lat":45.415680000000066,
      "lng":9.239790000000028
   },
   {  
      "name":"PARCO DELLE ABBAZIE",
      "lat":45.4115,
      "lng":9.205299999999966
   },
   {  
      "name":"ROGOREDO",
      "lat":45.4336,
      "lng":9.239000000000033
   },
   {  
      "name":"MECENATE",
      "lat":45.44691516639939,
      "lng":9.256396225009562
   },
   {  
      "name":"RIPAMONTI",
      "lat":45.44023000000004,
      "lng":9.199759937821078
   },
   {  
      "name":"VIALE MONZA",
      "lat":45.5150599956983,
      "lng":9.225415473601956
   },
   {  
      "name":"CENTRALE",
      "lat":45.487,
      "lng":9.204899999999952
   },
   {  
      "name":"GRECO",
      "lat":45.49702000000008,
      "lng":9.212120000000027
   },
   {  
      "name":"LORETO",
      "lat":45.4862,
      "lng":9.216999999999985
   },
   {  
      "name":"PARCO FORLANINI - ORTICA",
      "lat":45.4712,
      "lng":9.242899999999963
   },
   {  
      "name":"MACIACHINI - MAGGIOLINA",
      "lat":45.49795000000006,
      "lng":9.184480000000065
   },
   {  
      "name":"ISOLA",
      "lat":45.48750000000007,
      "lng":9.188870000000065
   },
   {  
      "name":"SARPI",
      "lat":45.4833,
      "lng":9.172500000000014
   },
   {  
      "name":"DE ANGELI - MONTE ROSA",
      "lat":45.47529000000003,
      "lng":9.147410000000036
   },
   {  
      "name":"WASHINGTON",
      "lat":45.46001000000007,
      "lng":9.156950000000052
   },
   {  
      "name":"BANDE NERE",
      "lat":45.46149994892961,
      "lng":9.136019966674546
   },
   {  
      "name":"FORZE ARMATE",
      "lat":45.465340000000026,
      "lng":9.130160000000046
   },
   {  
      "name":"PARCO BOSCO IN CITTA'",
      "lat":45.48332000000005,
      "lng":9.089920000000063
   },
   {  
      "name":"PORTA ROMANA",
      "lat":45.456900000000076,
      "lng":9.200950000000034
   },
   {  
      "name":"VIGENTINA",
      "lat":45.4399,
      "lng":9.200399999999945
   },
   {  
      "name":"TICINESE",
      "lat":45.453940000000046,
      "lng":9.182240000000036
   },
   {  
      "name":"CANTALUPA",
      "lat":45.4219,
      "lng":9.156799999999976
   },
   {  
      "name":"PARCO DEI NAVIGLI",
      "lat":45.4233,
      "lng":9.141899999999964
   },
   {  
      "name":"PAGANO",
      "lat":45.4735,
      "lng":9.162800000000061
   },
   {  
      "name":"GARIBALDI REPUBBLICA",
      "lat":45.479460000000074,
      "lng":9.194540000000075
   }
]